{"type": "FeatureCollection", "version": "draft", "features": [{"type": "Feature", "geometry": {"type": "Point", "coordinates": [2.365001, 48.8302]}, "properties": {"label": "Paris 13e Arrondissement", "score": 0.405779869061977, "id": "75113", "type": "municipality", "name": "Paris 13e Arrondissement", "postcode": "75013", "citycode": "75113", "x": 653384.64, "y": 6859092.21, "population": 181552, "city": "Paris 13e Arrondissement", "context": "75, Paris, \u00cele-de-France", "importance": 0.5505350814208777}}, {"type": "Feature", "geometry": {"type": "Point", "coordinates": [2.387299, 48.825278]}, "properties": {"label": "Voie Ds/13 75013 Paris", "score": 0.3713811309498977, "id": "75113_x502", "type": "street", "x": 655017.29, "y": 6858532.06, "importance": 0.585192440448875, "name": "Voie Ds/13", "postcode": "75013", "citycode": "75113", "city": "Paris", "district": "Paris 13e Arrondissement", "context": "75, Paris, \u00cele-de-France"}}, {"type": "Feature", "geometry": {"type": "Point", "coordinates": [2.381915, 48.825311]}, "properties": {"label": "Voie Gv/13 75013 Paris", "score": 0.3115725185097063, "id": "75113_70who0", "type": "street", "x": 654622.01, "y": 6858538.8, "importance": 0.585192440448875, "name": "Voie Gv/13", "postcode": "75013", "citycode": "75113", "city": "Paris", "district": "Paris 13e Arrondissement", "context": "75, Paris, \u00cele-de-France"}}, {"type": "Feature", "geometry": {"type": "Point", "coordinates": [2.359273, 48.817384]}, "properties": {"label": "Voie Gu/13 75013 Paris", "score": 0.3115725185097063, "id": "75113_c2gqio", "type": "street", "x": 652952.58, "y": 6857670.61, "importance": 0.585192440448875, "name": "Voie Gu/13", "postcode": "75013", "citycode": "75113", "city": "Paris", "district": "Paris 13e Arrondissement", "context": "75, Paris, \u00cele-de-France"}}, {"type": "Feature", "geometry": {"type": "Point", "coordinates": [2.364564, 48.829669]}, "properties": {"label": "Voie Fi/13 75013 Paris", "score": 0.3115725185097063, "id": "75113_zxfm2i", "type": "street", "x": 653352.09, "y": 6859033.44, "importance": 0.585192440448875, "name": "Voie Fi/13", "postcode": "75013", "citycode": "75113", "city": "Paris", "district": "Paris 13e Arrondissement", "context": "75, Paris, \u00cele-de-France"}}, {"type": "Feature", "geometry": {"type": "Point", "coordinates": [2.368485, 48.840209]}, "properties": {"label": "Voie Dz/13 75013 Paris", "score": 0.3115725185097063, "id": "75113_vxmu9v", "type": "street", "x": 653649.32, "y": 6860203.03, "importance": 0.585192440448875, "name": "Voie Dz/13", "postcode": "75013", "citycode": "75113", "city": "Paris", "district": "Paris 13e Arrondissement", "context": "75, Paris, \u00cele-de-France"}}, {"type": "Feature", "geometry": {"type": "Point", "coordinates": [2.358208, 48.821045]}, "properties": {"label": "Voie Dy/13 75013 Paris", "score": 0.3115725185097063, "id": "75113_n3x2i5", "type": "street", "x": 652877.74, "y": 6858078.28, "importance": 0.585192440448875, "name": "Voie Dy/13", "postcode": "75013", "citycode": "75113", "city": "Paris", "district": "Paris 13e Arrondissement", "context": "75, Paris, \u00cele-de-France"}}, {"type": "Feature", "geometry": {"type": "Point", "coordinates": [2.372347, 48.83475]}, "properties": {"label": "Voie Gq/13 75013 Paris", "score": 0.3115725185097063, "id": "75113_x639", "type": "street", "x": 653927.93, "y": 6859593.85, "importance": 0.585192440448875, "name": "Voie Gq/13", "postcode": "75013", "citycode": "75113", "city": "Paris", "district": "Paris 13e Arrondissement", "context": "75, Paris, \u00cele-de-France"}}, {"type": "Feature", "geometry": {"type": "Point", "coordinates": [2.352431, 48.822092]}, "properties": {"label": "Rue K\u00fcss 75013 Paris", "score": 0.2804720400408068, "id": "75113_5179", "type": "street", "x": 652454.51, "y": 6858198.22, "importance": 0.585192440448875, "name": "Rue K\u00fcss", "postcode": "75013", "citycode": "75113", "city": "Paris", "district": "Paris 13e Arrondissement", "context": "75, Paris, \u00cele-de-France"}}, {"type": "Feature", "geometry": {"type": "Point", "coordinates": [2.38408, 48.826747]}, "properties": {"label": "All\u00e9e Paris-ivry 75013 Paris", "score": 0.2577447673135341, "id": "75113_7064", "type": "street", "x": 654782.18, "y": 6858697.24, "importance": 0.585192440448875, "name": "All\u00e9e Paris-ivry", "postcode": "75013", "citycode": "75113", "city": "Paris", "district": "Paris 13e Arrondissement", "context": "75, Paris, \u00cele-de-France"}}], "attribution": "BAN", "licence": "ETALAB-2.0", "query": "paris 13eme", "limit": 10}
