{"type": "FeatureCollection", "version": "draft", "features": [{"type": "Feature", "geometry": {"type": "Point", "coordinates": [5.28782, 45.558623]}, "properties": {"label": "Rue du Poulet 38300 Meyri\u00e9", "score": 0.7308952918089078, "id": "38230_0700", "type": "street", "x": 878456.31, "y": 6498043.93, "importance": 0.32556249561227224, "name": "Rue du Poulet", "postcode": "38300", "citycode": "38230", "city": "Meyri\u00e9", "context": "38, Is\u00e8re, Auvergne-Rh\u00f4ne-Alpes"}}, {"type": "Feature", "geometry": {"type": "Point", "coordinates": [0.602028, 47.405104]}, "properties": {"label": "1 Rue du Clos Poulet 37230 Fondettes", "score": 0.6430987015574604, "housenumber": "1", "id": "37109_0163_00001", "type": "housenumber", "x": 519180.84, "y": 6703274.57, "importance": 0.4425067697636441, "name": "1 Rue du Clos Poulet", "postcode": "37230", "citycode": "37109", "city": "Fondettes", "context": "37, Indre-et-Loire, Centre-Val de Loire", "street": "Rue du Clos Poulet"}}, {"type": "Feature", "geometry": {"type": "Point", "coordinates": [-1.904617, 48.63803]}, "properties": {"label": "1 Rue du Clos Poulet 35350 Saint-M\u00e9loir-des-Ondes", "score": 0.6387676155452923, "housenumber": "1", "id": "35299_0029_00001", "type": "housenumber", "x": 338852.77, "y": 6848758.35, "importance": 0.39486482362979425, "name": "1 Rue du Clos Poulet", "postcode": "35350", "citycode": "35299", "city": "Saint-M\u00e9loir-des-Ondes", "context": "35, Ille-et-Vilaine, Bretagne", "street": "Rue du Clos Poulet"}}, {"type": "Feature", "geometry": {"type": "Point", "coordinates": [2.326429, 49.460036]}, "properties": {"label": "1 Rue du Trou Poulette 60130 Bulles", "score": 0.574576727209406, "housenumber": "1", "id": "60115_0126_00001", "type": "housenumber", "x": 651150.71, "y": 6929167.25, "importance": 0.3203439993034657, "name": "1 Rue du Trou Poulette", "postcode": "60130", "citycode": "60115", "city": "Bulles", "context": "60, Oise, Hauts-de-France", "street": "Rue du Trou Poulette"}}, {"type": "Feature", "geometry": {"type": "Point", "coordinates": [5.557461, 45.732813]}, "properties": {"label": "1 Route du Poulet 01680 Lhuis", "score": 0.5744960066944015, "housenumber": "1", "id": "01216_0122_00001", "type": "housenumber", "x": 898855.68, "y": 6518023.19, "importance": 0.31945607363841677, "name": "1 Route du Poulet", "postcode": "01680", "citycode": "01216", "city": "Lhuis", "context": "01, Ain, Auvergne-Rh\u00f4ne-Alpes", "street": "Route du Poulet"}}, {"type": "Feature", "geometry": {"type": "Point", "coordinates": [-1.398557, 48.677728]}, "properties": {"label": "1 Route du Poulet 50300 Vains", "score": 0.5735611880428425, "housenumber": "1", "id": "50612_0035_00001", "type": "housenumber", "x": 376321.01, "y": 6850969.69, "importance": 0.3091730684712678, "name": "1 Route du Poulet", "postcode": "50300", "citycode": "50612", "city": "Vains", "context": "50, Manche, Normandie", "street": "Route du Poulet"}}, {"type": "Feature", "geometry": {"type": "Point", "coordinates": [1.635024, 50.417843]}, "properties": {"label": "Rue Poulet 62180 Rang-du-Fliers", "score": 0.5619666897159835, "id": "62688_0495", "type": "street", "x": 602854.9, "y": 7036427.1, "importance": 0.3959193011615326, "name": "Rue Poulet", "postcode": "62180", "citycode": "62688", "city": "Rang-du-Fliers", "context": "62, Pas-de-Calais, Hauts-de-France"}}, {"type": "Feature", "geometry": {"type": "Point", "coordinates": [5.399286, 49.342407]}, "properties": {"label": "Rue du Fort Poulet 55150 Damvillers", "score": 0.544379002972013, "id": "55145_0075", "type": "street", "x": 874375.99, "y": 6918521.52, "importance": 0.3039585063763544, "name": "Rue du Fort Poulet", "postcode": "55150", "citycode": "55145", "city": "Damvillers", "context": "55, Meuse, Grand Est"}}, {"type": "Feature", "geometry": {"type": "Point", "coordinates": [-0.620901, 44.967499]}, "properties": {"label": "1 Rue du Moulin de Poulet 33290 Ludon-M\u00e9doc", "score": 0.5137750819449206, "housenumber": "1", "id": "33256_0692_00001", "type": "housenumber", "x": 414609.78, "y": 6436353.82, "importance": 0.40152590139412647, "name": "1 Rue du Moulin de Poulet", "postcode": "33290", "citycode": "33256", "city": "Ludon-M\u00e9doc", "context": "33, Gironde, Nouvelle-Aquitaine", "street": "Rue du Moulin de Poulet"}}, {"type": "Feature", "geometry": {"type": "Point", "coordinates": [5.049378, 45.19]}, "properties": {"label": "Route du Poulet 26350 Montchenu", "score": 0.48165652670327297, "id": "26194_1280", "type": "street", "x": 860923.96, "y": 6456609.2, "importance": 0.2982217937360031, "name": "Route du Poulet", "postcode": "26350", "citycode": "26194", "city": "Montchenu", "context": "26, Dr\u00f4me, Auvergne-Rh\u00f4ne-Alpes"}}], "attribution": "BAN", "licence": "ETALAB-2.0", "query": "1 rue du poulet", "limit": 10}
